{"version": 0.6, "generator": "Overpass API 0.7.62.8 e802775f", "osm3s": {"timestamp_osm_base": "2025-11-21T16:41:36Z", "copyright": "The data included in this document is from www.openstreetmap.org. The data is made available under ODbL."}, "elements": [{"type": "node", "id": 4697010389, "lat": 11.165271, "lon": 106.3107115, "tags": {"internet_access": "wlan", "name:en": "Hoa Hong", "tourism": "guest_house"}}, {"type": "node", "id": 4698973904, "lat": 11.1645266, "lon": 106.3103392, "tags": {"amenity": "restaurant", "cuisine": "vietnamese", "opening_hours": "Mo-Su 05:00-19:00"}}, {"type": "node", "id": 4701562703, "lat": 11.2827409, "lon": 106.3684823, "tags": {"name:en": "Dau Tieng (1969 Basecamp Runway)", "tourism": "attraction"}}, {"type": "node", "id": 4718260190, "lat": 11.0706535, "lon": 106.2914441, "tags": {"name": "Binh an", "name:vi": "Binh an", "tourism": "hotel"}}, {"type": "node", "id": 5180254441, "lat": 11.2940118, "lon": 106.3680307}, {"type": "node", "id": 5180254442, "lat": 11.2932915, "lon": 106.3678599}, {"type": "node", "id": 5180254443, "lat": 11.2933808, "lon": 106.3674683}, {"type": "node", "id": 5180254444, "lat": 11.2941011, "lon": 106.3676391}, {"type": "node", "id": 5180254445, "lat": 11.2951461, "lon": 106.367869}, {"type": "node", "id": 5180254446, "lat": 11.2944108, "lon": 106.367709}, {"type": "node", "id": 5180254447, "lat": 11.2943266, "lon": 106.3681116}, {"type": "node", "id": 5180254448, "lat": 11.2950618, "lon": 106.3682716}, {"type": "node", "id": 5180254457, "lat": 11.2798316, "lon": 106.3618928}, {"type": "node", "id": 5180254458, "lat": 11.2790896, "lon": 106.3623038}, {"type": "node", "id": 5180254459, "lat": 11.2798453, "lon": 106.363079}, {"type": "node", "id": 5180254460, "lat": 11.2798957, "lon": 106.3630766}, {"type": "node", "id": 5180254461, "lat": 11.2799644, "lon": 106.3630416}, {"type": "node", "id": 5180254462, "lat": 11.2799827, "lon": 106.3630019}, {"type": "node", "id": 5180254463, "lat": 11.2799919, "lon": 106.3629459}, {"type": "node", "id": 5498516623, "lat": 11.0797812, "lon": 106.3141369, "tags": {"amenity": "cafe", "name": "Nh\u00e0 ch\u00fa vi\u1ec7t"}}, {"type": "node", "id": 6169979489, "lat": 11.3157609, "lon": 106.3449296, "tags": {"amenity": "cafe", "name": "Qu\u00e1n N\u00fai l\u1edf"}}, {"type": "node", "id": 6997304885, "lat": 11.0717209, "lon": 106.3523952, "tags": {"addr:street": "\u0110T787", "amenity": "pharmacy", "internet_access": "wlan", "name": "H\u1ea3i Hu\u1ef3nh", "tourism": "guest_house"}}, {"type": "node", "id": 7400646885, "lat": 11.2935654, "lon": 106.382176, "tags": {"amenity": "cafe", "name": "CF-Sam Sum-133 Nguy\u1ec5n Th\u1ecb Minh Khai-KP5-TT.D\u1ea7u Ti\u1ebfng-B\u00ecnh D\u01b0\u01a1ng-0363932347"}}, {"type": "node", "id": 7400646886, "lat": 11.2830245, "lon": 106.3774912, "tags": {"amenity": "restaurant", "name": "QA-B\u00e0 T\u00e1m-34 \u0110\u01b0\u1eddng 13 Th\u00e1ng 3-KP5-TT.D\u1ea7u Ti\u1ebfng-B\u00ecnh D\u01b0\u01a1ng-0978572531"}}, {"type": "node", "id": 7400678987, "lat": 11.2834898, "lon": 106.3794358, "tags": {"amenity": "cafe", "name": "CF- Th\u1ea3o My-6 \u0110\u01b0\u1eddng 13 Th\u00e1ng 3-KP5-TT.D\u1ea7u Ti\u1ebfng-B\u00ecnh D\u01b0\u01a1ng-0985511521"}}, {"type": "node", "id": 7400683586, "lat": 11.2822932, "lon": 106.3750392, "tags": {"amenity": "cafe", "name": "CF-369-74 \u0110\u01b0\u1eddng 13 Th\u00e1ng 3-KP5-TT.D\u1ea7u Ti\u1ebfng-B\u00ecnh D\u01b0\u01a1ng"}}, {"type": "node", "id": 7400685285, "lat": 11.2858797, "lon": 106.3804222, "tags": {"amenity": "restaurant", "name": "QA-B\u00f2 Thanh M\u1eadp Mu\u1ed9i- L\u00ea H\u1ed3ng Phong-KP5-TT.D\u1ea7u Ti\u1ebfng-B\u00ecnh D\u01b0\u01a1ng-0397066677"}}, {"type": "node", "id": 7400713585, "lat": 11.2823024, "lon": 106.3748384, "tags": {"amenity": "restaurant", "name": "QA-B\u00e1nh X\u00e8o B\u00e0 Ch\u00edn-72 \u0110\u01b0\u1eddng 13 Th\u00e1ng 3-KP5-TT.D\u1ea7u Ti\u1ebfng-B\u00ecnh D\u01b0\u01a1ng-0326432234"}}, {"type": "node", "id": 7400729186, "lat": 11.2822098, "lon": 106.3690431, "tags": {"amenity": "restaurant", "name": "QA-B\u00fan \u0110\u1eadu-C\u00e1ch M\u1ea1ng Th\u00e1ng T\u00e1m-KP5-TT.D\u1ea7u Ti\u1ebfng-B\u00ecnh D\u01b0\u01a1ng"}}, {"type": "node", "id": 7400729385, "lat": 11.2814009, "lon": 106.3702212, "tags": {"amenity": "cafe", "name": "CF-L\u00ea Khanh- 187 \u0110\u01b0\u1eddng 13 Th\u00e1ng 3-KP5-TT.D\u1ea7u Ti\u1ebfng-B\u00ecnh D\u01b0\u01a1ng"}}, {"type": "node", "id": 7400764885, "lat": 11.2867136, "lon": 106.3690859, "tags": {"amenity": "cafe", "name": "CF-B\u00e9 Hai-221 C\u00e1ch M\u1ea1ng Th\u00e1ng T\u00e1m-KP5-TT.D\u1ea7u Ti\u1ebfng-B\u00ecnh D\u01b0\u01a1ng-0368465760"}}, {"type": "node", "id": 7400764886, "lat": 11.288976, "lon": 106.3698376, "tags": {"amenity": "cafe", "name": "CF-H\u1ed9i Ng\u1ed9-C\u00e1ch M\u1ea1ng Th\u00e1ng T\u00e1m-KP5-TT.D\u1ea7u Ti\u1ebfng-B\u00ecnh D\u01b0\u01a1ng-0396307855"}}, {"type": "node", "id": 7400765085, "lat": 11.2874032, "lon": 106.3693411, "tags": {"amenity": "cafe", "name": "CF-Ph\u00e1t T\u00e0i-C\u00e1ch M\u1ea1ng Th\u00e1ng T\u00e1m-KP5-TT.D\u1ea7u Ti\u1ebfng-B\u00ecnh D\u01b0\u01a1ng-0979944269"}}, {"type": "node", "id": 7400765088, "lat": 11.2898624, "lon": 106.3701468, "tags": {"amenity": "cafe", "name": "CF-Tuy\u1ebft Ngh\u0129a-208 C\u00e1ch M\u1ea1ng Th\u00e1ng T\u00e1m-KP5-TT.D\u1ea7u Ti\u1ebfng-B\u00ecnh D\u01b0\u01a1ng-0866926141"}}, {"type": "node", "id": 7400765186, "lat": 11.2888704, "lon": 106.3698208, "tags": {"amenity": "restaurant", "name": "QA-Bia Th\u00e1p-198 C\u00e1ch M\u1ea1ng Th\u00e1ng T\u00e1m-KP5-TT.D\u1ea7u Ti\u1ebfng-B\u00ecnh D\u01b0\u01a1ng-0962968663"}}, {"type": "node", "id": 7400771985, "lat": 11.2903643, "lon": 106.3690761, "tags": {"amenity": "cafe", "name": "CF-S\u00e2n V\u01b0\u1eddn 368-C\u00e1ch M\u1ea1ng Th\u00e1ng T\u00e1m-KP5-TT.D\u1ea7u Ti\u1ebfng-B\u00ecnh D\u01b0\u01a1ng-0946227022"}}, {"type": "node", "id": 7400793885, "lat": 11.2810642, "lon": 106.3682209, "tags": {"amenity": "cafe", "name": "CF-Thu Quy\u1ec1n- \u0110\u01b0\u1eddng 13 Th\u00e1ng 3-KP5-TT.D\u1ea7u Ti\u1ebfng-B\u00ecnh D\u01b0\u01a1ng"}}, {"type": "node", "id": 7400799786, "lat": 11.2806609, "lon": 106.3656799, "tags": {"amenity": "cafe", "name": "CF-Safari- \u0110\u01b0\u1eddng 13 Th\u00e1ng 3-KP2-TT.D\u1ea7u Ti\u1ebfng-B\u00ecnh D\u01b0\u01a1ng-0963557949"}}, {"type": "node", "id": 7400821285, "lat": 11.280764, "lon": 106.3660176, "tags": {"amenity": "cafe", "name": "CF-V\u00f5ng Thi\u00ean H\u01b0\u01a1ng- \u0110\u01b0\u1eddng 13 Th\u00e1ng 3-KP2-TT.D\u1ea7u Ti\u1ebfng-B\u00ecnh D\u01b0\u01a1ng"}}, {"type": "node", "id": 7400823785, "lat": 11.2796524, "lon": 106.3614736, "tags": {"amenity": "cafe", "name": "CF-V\u01b0\u1eddn D\u1ea7u- \u0110\u01b0\u1eddng 13 Th\u00e1ng 3-KP2-TT.D\u1ea7u Ti\u1ebfng-B\u00ecnh D\u01b0\u01a1ng"}}, {"type": "node", "id": 7400922585, "lat": 11.2943244, "lon": 106.3649206, "tags": {"amenity": "cafe", "name": "CF-C\u1ed9i Ngu\u1ed3n -V\u00f5 Th\u1ecb S\u00e1u -KP2-TT.D\u1ea7u Ti\u1ebfng-B\u00ecnh D\u01b0\u01a1ng"}}, {"type": "node", "id": 7400977488, "lat": 11.2847458, "lon": 106.3600222, "tags": {"amenity": "restaurant", "name": "QA-555-KP2-TT.D\u1ea7u Ti\u1ebfng-B\u00ecnh D\u01b0\u01a1ng-02473521555"}}, {"type": "node", "id": 7401831796, "lat": 11.2781389, "lon": 106.3575983, "tags": {"amenity": "restaurant", "name": "QA-Huy L\u1ef1c-Nguy\u1ec5n V\u0103n Linh-KP2-TT.D\u1ea7u Ti\u1ebfng-B\u00ecnh D\u01b0\u01a1ng-0372298727"}}, {"type": "node", "id": 7401831999, "lat": 11.2777043, "lon": 106.3574031, "tags": {"amenity": "restaurant", "name": "QA-SaKe-Nguy\u1ec5n V\u0103n Linh-KP2-TT.D\u1ea7u Ti\u1ebfng-B\u00ecnh D\u01b0\u01a1ng-0916644744"}}, {"type": "node", "id": 7401832891, "lat": 11.2781857, "lon": 106.3576144, "tags": {"amenity": "restaurant", "name": "QA-B\u1ea3o B\u1ea3o Qu\u00e1n-Nguy\u1ec5n V\u0103n Linh-KP2-TT.D\u1ea7u Ti\u1ebfng-B\u00ecnh D\u01b0\u01a1ng-0964025909"}}, {"type": "node", "id": 7401835885, "lat": 11.2771695, "lon": 106.3575786, "tags": {"amenity": "cafe", "name": "CF-H\u00e0 Nga-64 Nguy\u1ec5n An Ninh-KP2-TT.D\u1ea7u Ti\u1ebfng-B\u00ecnh D\u01b0\u01a1ng"}}, {"type": "node", "id": 7401861685, "lat": 11.2764249, "lon": 106.3567037, "tags": {"amenity": "restaurant", "name": "QA-Huynh \u0110\u1ec7 Qu\u00e1n-Nguy\u1ec5n V\u0103n Linh-KP2-TT.D\u1ea7u Ti\u1ebfng-B\u00ecnh D\u01b0\u01a1ng-02743507665"}}, {"type": "node", "id": 7401861785, "lat": 11.2749568, "lon": 106.3558998, "tags": {"amenity": "restaurant", "name": "QA-L\u00e0ng N\u01b0\u1edbng C\u01b0\u1eddi C\u00e1i Coi-Nguy\u1ec5n V\u0103n Linh-KP2-TT.D\u1ea7u Ti\u1ebfng-B\u00ecnh D\u01b0\u01a1ng"}}, {"type": "node", "id": 7401867787, "lat": 11.2727648, "lon": 106.3637341, "tags": {"amenity": "restaurant", "name": "QA-Minh Th\u1ea3o-Gi\u1ea3i Ph\u00f3ng-KP1-TT.D\u1ea7u Ti\u1ebfng-B\u00ecnh D\u01b0\u01a1ng-0916713771"}}, {"type": "node", "id": 7401882189, "lat": 11.2734461, "lon": 106.3623905, "tags": {"amenity": "cafe", "description": "CF-Kh\u00f4ng T\u00ean-Y\u1ebft Ki\u1ec1u-KP1-TT.D\u1ea7u Ti\u1ebfng-B\u00ecnh D\u01b0\u01a1ng"}}, {"type": "node", "id": 7401918385, "lat": 11.2722203, "lon": 106.3643027, "tags": {"amenity": "cafe", "name": "CF-\u0110\u1eb9p-Gi\u1ea3i Ph\u00f3ng-KP1-TT.D\u1ea7u Ti\u1ebfng-B\u00ecnh D\u01b0\u01a1ng"}}, {"type": "node", "id": 7401935685, "lat": 11.2774997, "lon": 106.3636843, "tags": {"amenity": "cafe", "name": "CF-Ph\u1ed1 Nh\u1edb-Y\u1ebft Ki\u1ec1u-KP1-TT.D\u1ea7u Ti\u1ebfng-B\u00ecnh D\u01b0\u01a1ng-0896413512"}}, {"type": "node", "id": 7403858285, "lat": 11.2708494, "lon": 106.3614596, "tags": {"amenity": "cafe", "name": "CF-\u00d4 Tr\u00e2m-\u0110\u1ed9c L\u1eadp-KP1-TT.D\u1ea7u Ti\u1ebfng-B\u00ecnh D\u01b0\u01a1ng-0379376714"}}, {"type": "node", "id": 7403858385, "lat": 11.2702895, "lon": 106.3620418, "tags": {"amenity": "restaurant", "name": "QA-\u00dat B\u00ea 879-\u0110\u1ed9c L\u1eadp-KP1-TT.D\u1ea7u Ti\u1ebfng-B\u00ecnh D\u01b0\u01a1ng-0342838885"}}, {"type": "node", "id": 7403860385, "lat": 11.2685179, "lon": 106.3643121, "tags": {"amenity": "cafe", "name": "CF-T&P-\u0110\u1ed9c L\u1eadp-KP1-TT.D\u1ea7u Ti\u1ebfng-B\u00ecnh D\u01b0\u01a1ng"}}, {"type": "node", "id": 7403869186, "lat": 11.2519917, "lon": 106.3745324, "tags": {"amenity": "cafe", "name": "CF-Minh Th\u01b0-DT744-KP1-TT.D\u1ea7u Ti\u1ebfng-B\u00ecnh D\u01b0\u01a1ng-0394984355"}}, {"type": "node", "id": 7403886585, "lat": 11.2524867, "lon": 106.3742406, "tags": {"amenity": "cafe", "name": "CF-Qu\u1ef3nh Anh-DT744-KP1-TT.D\u1ea7u Ti\u1ebfng-B\u00ecnh D\u01b0\u01a1ng-0836190471"}}, {"type": "node", "id": 7403899785, "lat": 11.2358176, "lon": 106.3836011, "tags": {"amenity": "cafe", "name": "CF-B\u00ecnh Minh-DT744-KP1-TT.D\u1ea7u Ti\u1ebfng-B\u00ecnh D\u01b0\u01a1ng"}}, {"type": "node", "id": 7403913387, "lat": 11.2280689, "lon": 106.3912257, "tags": {"amenity": "restaurant", "name": "QA-B\u00f2 T\u01a1-DT744-B\u1ebfn Tranh- Thanh An-TT.D\u1ea7u Ti\u1ebfng-B\u00ecnh D\u01b0\u01a1ng"}}, {"type": "node", "id": 7403915185, "lat": 11.2312048, "lon": 106.3881567, "tags": {"amenity": "cafe", "name": "CF-T\u00fa Trinh-DT744-B\u1ebfn Tranh- Thanh An-TT.D\u1ea7u Ti\u1ebfng-B\u00ecnh D\u01b0\u01a1ng-0979448134"}}, {"type": "node", "id": 7403918588, "lat": 11.2207082, "lon": 106.393564, "tags": {"amenity": "cafe", "name": "CF-Ph\u01b0\u01a1ng Anh-DT744-B\u1ebfn Tranh- Thanh An-TT.D\u1ea7u Ti\u1ebfng-B\u00ecnh D\u01b0\u01a1ng-0977747932"}}, {"type": "node", "id": 7403918685, "lat": 11.2254377, "lon": 106.3920803, "tags": {"amenity": "cafe", "name": "CF-99-DT744-B\u1ebfn Ranh- Thanh An-TT.D\u1ea7u Ti\u1ebfng-B\u00ecnh D\u01b0\u01a1ng"}}, {"type": "node", "id": 7404865485, "lat": 11.2856659, "lon": 106.388244, "tags": {"amenity": "restaurant", "name": "QA-D\u00ea \u0110\u1ee9c D\u0169ng-DT750-TT.D\u1ea7u Ti\u1ebfng-B\u00ecnh D\u01b0\u01a1ng"}}, {"type": "node", "id": 7404865487, "lat": 11.2838112, "lon": 106.3807098, "tags": {"amenity": "restaurant", "name": "QA-H\u1ea3i S\u1ea3n 138-DT750-TT.D\u1ea7u Ti\u1ebfng-B\u00ecnh D\u01b0\u01a1ng-0329688955"}}, {"type": "node", "id": 7404865785, "lat": 11.2838613, "lon": 106.3809425, "tags": {"amenity": "restaurant", "name": "QA-B\u00f2 S\u00e1u T\u00e8o-DT750-TT.D\u1ea7u Ti\u1ebfng-B\u00ecnh D\u01b0\u01a1ng-0387061608"}}, {"type": "node", "id": 7409365388, "lat": 11.2855229, "lon": 106.3656617, "tags": {"amenity": "cafe", "name": "CF-Thu\u1ef7 Tr\u00fac-H\u00f9ng V\u01b0\u01a1ng-TT.D\u1ea7u Ti\u1ebfng-Huy\u1ec7n D\u1ea7u Ti\u1ebfn-B\u00ecnh D\u01b0\u01a1ng"}}, {"type": "node", "id": 7409365888, "lat": 11.2853672, "lon": 106.3655821, "tags": {"amenity": "restaurant", "name": "QA-Ku Ken-H\u00f9ng V\u01b0\u01a1ng-TT.D\u1ea7u Ti\u1ebfng-Huy\u1ec7n D\u1ea7u Ti\u1ebfn-B\u00ecnh D\u01b0\u01a1ng"}}, {"type": "node", "id": 7409365890, "lat": 11.2875602, "lon": 106.3664946, "tags": {"amenity": "restaurant", "name": "QA-D\u00ea Th\u00e0nh Long-H\u00f9ng V\u01b0\u01a1ng-TT.D\u1ea7u Ti\u1ebfng-Huy\u1ec7n D\u1ea7u Ti\u1ebfn-B\u00ecnh D\u01b0\u01a1ng-0969009339"}}, {"type": "node", "id": 7868728187, "lat": 11.2830909, "lon": 106.3775446, "tags": {"amenity": "restaurant", "name:en": "Banh Xeo Restaurant"}}, {"type": "node", "id": 11533140869, "lat": 11.3237179, "lon": 106.3474233, "tags": {"name": "Ng\u1ecdn H\u1ea3i \u0110\u0103ng h\u1ed3 D\u1ea7u Ti\u1ebfng", "tourism": "attraction"}}, {"type": "node", "id": 12785908799, "lat": 11.352654, "lon": 106.3570138, "tags": {"amenity": "fast_food"}}, {"type": "node", "id": 12788160419, "lat": 11.1441131, "lon": 106.309067, "tags": {"amenity": "restaurant", "name": "H\u1ee7 Ti\u1ebfu Nam Vang", "phone": "+84 398 803 430"}}, {"type": "way", "id": 534060473, "nodes": [5180254441, 5180254442, 5180254443, 5180254444, 5180254441], "tags": {"leisure": "park"}}, {"type": "way", "id": 534060474, "nodes": [5180254445, 5180254446, 5180254447, 5180254448, 5180254445], "tags": {"leisure": "park"}}, {"type": "way", "id": 534060477, "nodes": [5180254457, 5180254458, 5180254459, 5180254460, 5180254461, 5180254462, 5180254463, 5180254457], "tags": {"leisure": "park", "name": "C\u00f4ng vi\u00ean D\u1ea7u Ti\u1ebfng"}}]}